[{
	"_id" : "59ba925b8b0cbc00016283cc",
	"address" : "via dei Mille, 12",
	"maxDailyPrice" : 0,
	"city" : "Milano",
	"maxHeightAllowed" : 0,
	"price3rdHour" : 0,
	"openingTime" : 0,
	"latitude" : 45.5252643,
	"hourPrice" : 0,
	"gplAndGasAllow" : false,
	"accessControllType" : "MANUAL",
	"price4thHour" : 0,
	"isKeyCustodyNeed" : false,
	"open24Hour" : true,
	"price2ndHour" : 1.5,
	"phoceContact" : "123",
	"cap" : 22111,
	"province" : "MI",
	"closingTime" : 0,
	"phone" : "3424115105",
	"appId" : "myparkicngdldapm",
	"name" : "prova",
	"isGuardedParking" : false,
	"price1stHour" : 2,
	"longitude" : 9.2142051
},
{
	"_id" : "59c0dfb58b0cbc00016283d0",
	"address" : "via dei Mille, 12",
	"maxDailyPrice" : 0,
	"city" : "Milano",
	"maxHeightAllowed" : 0,
	"price3rdHour" : 0,
	"openingTime" : 0,
	"latitude" : 45.5252643,
	"hourPrice" : 0,
	"gplAndGasAllow" : false,
	"accessControllType" : "MANUAL",
	"price4thHour" : 0,
	"isKeyCustodyNeed" : false,
	"open24Hour" : true,
	"price2ndHour" : 1.5,
	"phoceContact" : "123",
	"cap" : 22111,
	"province" : "MI",
	"closingTime" : 0,
	"phone" : "3424115105",
	"appId" : "myparkicngdldapm",
	"name" : "prova",
	"isGuardedParking" : false,
	"price1stHour" : 2,
	"longitude" : 9.2142051
},
{
	"_id" : "59ca374e8b0cbc00016283dd",
	"address" : "via dei Mille, 12",
	"maxDailyPrice" : 0,
	"city" : "Milano",
	"maxHeightAllowed" : 0,
	"price3rdHour" : 0,
	"openingTime" : 0,
	"latitude" : 45.5252643,
	"hourPrice" : 0,
	"gplAndGasAllow" : false,
	"accessControllType" : "MANUAL",
	"price4thHour" : 0,
	"isKeyCustodyNeed" : false,
	"open24Hour" : true,
	"price2ndHour" : 1.5,
	"phoceContact" : "123",
	"cap" : 22111,
	"province" : "MI",
	"closingTime" : 0,
	"phone" : "3424115105",
	"appId" : "myparkicngdldapm",
	"name" : "prova",
	"isGuardedParking" : false,
	"price1stHour" : 2,
	"longitude" : 9.2142051
},
{
	"_id" : "59ca37f38b0cbc00016283de",
	"address" : "Viale Sarca, angolo via Chiese",
	"maxDailyPrice" : 0,
	"city" : "Milano",
	"maxHeightAllowed" : 0,
	"price3rdHour" : 0,
	"openingTime" : 0,
	"latitude" : 45.5225175,
	"hourPrice" : 0,
	"gplAndGasAllow" : false,
	"accessControllType" : "AUTOMATIC",
	"price4thHour" : 0,
	"isKeyCustodyNeed" : false,
	"open24Hour" : true,
	"price2ndHour" : 1.5,
	"phoceContact" : "123",
	"cap" : 20126,
	"province" : "MI",
	"closingTime" : 0,
	"phone" : "3424115105",
	"appId" : "myparkicngdldapm",
	"name" : "Bicocca Village",
	"isGuardedParking" : false,
	"price1stHour" : 2,
	"longitude" : 9.21423
},
{
	"_id" : "59ca38298b0cbc00016283df",
	"address" : "Via Milanese,",
	"maxDailyPrice" : 0,
	"city" : "Milano",
	"maxHeightAllowed" : 0,
	"price3rdHour" : 0,
	"openingTime" : 0,
	"latitude" : 45.5225175,
	"hourPrice" : 0,
	"gplAndGasAllow" : false,
	"accessControllType" : "AUTOMATIC",
	"price4thHour" : 0,
	"isKeyCustodyNeed" : false,
	"open24Hour" : true,
	"price2ndHour" : 1.5,
	"phoceContact" : "123",
	"cap" : 20126,
	"province" : "MI",
	"closingTime" : 0,
	"phone" : "3424115105",
	"appId" : "myparkicngdldapm",
	"name" : "Centro Sarca",
	"isGuardedParking" : false,
	"price1stHour" : 2,
	"longitude" : 9.21423
},
{
	"_id" : "59ca38628b0cbc00016283e0",
	"address" : "Via Luigi Ornato, 169",
	"maxDailyPrice" : 0,
	"city" : "Milano",
	"maxHeightAllowed" : 0,
	"price3rdHour" : 0,
	"openingTime" : 0,
	"latitude" : 45.5205631,
	"hourPrice" : 0,
	"gplAndGasAllow" : false,
	"accessControllType" : "AUTOMATIC",
	"price4thHour" : 0,
	"isKeyCustodyNeed" : false,
	"open24Hour" : true,
	"price2ndHour" : 1.5,
	"phoceContact" : "123",
	"cap" : 20126,
	"province" : "MI",
	"closingTime" : 0,
	"phone" : "3424115105",
	"appId" : "myparkicngdldapm",
	"name" : "Il Gigante",
	"isGuardedParking" : false,
	"price1stHour" : 2,
	"longitude" : 9.1994671
},
{
	"_id" : "59ca38918b0cbc00016283e1",
	"address" : "Viale dell'Innovazione, 20",
	"maxDailyPrice" : 0,
	"city" : "Milano",
	"maxHeightAllowed" : 0,
	"price3rdHour" : 0,
	"openingTime" : 0,
	"latitude" : 45.5152106,
	"hourPrice" : 0,
	"gplAndGasAllow" : false,
	"accessControllType" : "MANUAL",
	"price4thHour" : 0,
	"isKeyCustodyNeed" : false,
	"open24Hour" : true,
	"price2ndHour" : 1.5,
	"phoceContact" : "123",
	"cap" : 20126,
	"province" : "MI",
	"closingTime" : 0,
	"phone" : "3424115105",
	"appId" : "myparkicngdldapm",
	"name" : "Teatro Arcimboldi",
	"isGuardedParking" : false,
	"price1stHour" : 2,
	"longitude" : 9.2053894
}]